{
   "results" : [
      {
         "address_components" : [
            {
               "long_name" : "Panama",
               "short_name" : "PA",
               "types" : [ "country", "political" ]
            }
         ],
         "formatted_address" : "Panama",
         "geometry" : {
            "bounds" : {
               "northeast" : {
                  "lat" : 9.7145001,
                  "lng" : -77.1584879
               },
               "southwest" : {
                  "lat" : 7.0409,
                  "lng" : -83.05224109999999
               }
            },
            "location" : {
               "lat" : 8.537981,
               "lng" : -80.782127
            },
            "location_type" : "APPROXIMATE",
            "viewport" : {
               "northeast" : {
                  "lat" : 9.7145001,
                  "lng" : -77.1584879
               },
               "southwest" : {
                  "lat" : 7.0409,
                  "lng" : -83.05224109999999
               }
            }
         },
         "place_id" : "ChIJ4yu-yIMVpo8Rz5ulH03g7nk",
         "types" : [ "country", "political" ]
      },
      {
         "address_components" : [
            {
               "long_name" : "Panama City",
               "short_name" : "Panama City",
               "types" : [ "locality", "political" ]
            },
            {
               "long_name" : "Panama",
               "short_name" : "Panama",
               "types" : [ "administrative_area_level_2", "political" ]
            },
            {
               "long_name" : "Panama",
               "short_name" : "Panama",
               "types" : [ "administrative_area_level_1", "political" ]
            },
            {
               "long_name" : "Panama",
               "short_name" : "PA",
               "types" : [ "country", "political" ]
            }
         ],
         "formatted_address" : "Panama City, Panama",
         "geometry" : {
            "bounds" : {
               "northeast" : {
                  "lat" : 9.2596966,
                  "lng" : -79.30689409999999
               },
               "southwest" : {
                  "lat" : 8.903133799999999,
                  "lng" : -79.5993804
               }
            },
            "location" : {
               "lat" : 8.9823792,
               "lng" : -79.51986959999999
            },
            "location_type" : "APPROXIMATE",
            "viewport" : {
               "northeast" : {
                  "lat" : 9.2596966,
                  "lng" : -79.30689409999999
               },
               "southwest" : {
                  "lat" : 8.903133799999999,
                  "lng" : -79.5993804
               }
            }
         },
         "place_id" : "ChIJYwPo2_GorI8RDsFC8PFdoqs",
         "types" : [ "locality", "political" ]
      }
   ],
   "status" : "OK"
}
