{
   "results" : [
      {
         "address_components" : [
            {
               "long_name" : "Abovyan",
               "short_name" : "Abovyan",
               "types" : [ "locality", "political" ]
            },
            {
               "long_name" : "Kotayk Province",
               "short_name" : "Kotayk Province",
               "types" : [ "administrative_area_level_1", "political" ]
            },
            {
               "long_name" : "Armenia",
               "short_name" : "AM",
               "types" : [ "country", "political" ]
            }
         ],
         "formatted_address" : "Abovyan, Armenia",
         "geometry" : {
            "bounds" : {
               "northeast" : {
                  "lat" : 40.3026362,
                  "lng" : 44.6525573
               },
               "southwest" : {
                  "lat" : 40.2447468,
                  "lng" : 44.5987631
               }
            },
            "location" : {
               "lat" : 40.2715286,
               "lng" : 44.63338299999999
            },
            "location_type" : "APPROXIMATE",
            "viewport" : {
               "northeast" : {
                  "lat" : 40.3026362,
                  "lng" : 44.6525573
               },
               "southwest" : {
                  "lat" : 40.2447468,
                  "lng" : 44.5987631
               }
            }
         },
         "place_id" : "ChIJKSOf7MOhakARtaMoDA6f7lw",
         "types" : [ "locality", "political" ]
      },
      {
         "address_components" : [
            {
               "long_name" : "Kotayk",
               "short_name" : "Kotayk",
               "types" : [ "locality", "political" ]
            },
            {
               "long_name" : "Kotayk Province",
               "short_name" : "Kotayk Province",
               "types" : [ "administrative_area_level_1", "political" ]
            },
            {
               "long_name" : "Armenia",
               "short_name" : "AM",
               "types" : [ "country", "political" ]
            }
         ],
         "formatted_address" : "Kotayk, Armenia",
         "geometry" : {
            "bounds" : {
               "northeast" : {
                  "lat" : 40.2872845,
                  "lng" : 44.66903689999999
               },
               "southwest" : {
                  "lat" : 40.27094719999999,
                  "lng" : 44.6518706
               }
            },
            "location" : {
               "lat" : 40.2791429,
               "lng" : 44.6600779
            },
            "location_type" : "APPROXIMATE",
            "viewport" : {
               "northeast" : {
                  "lat" : 40.2872845,
                  "lng" : 44.66903689999999
               },
               "southwest" : {
                  "lat" : 40.27094719999999,
                  "lng" : 44.6518706
               }
            }
         },
         "place_id" : "ChIJU2bMV0-gakARkOppPQdINQY",
         "types" : [ "locality", "political" ]
      }
   ],
   "status" : "OK"
}
