{
   "results" : [
      {
         "address_components" : [
            {
               "long_name" : "Bangui",
               "short_name" : "Bangui",
               "types" : [ "administrative_area_level_1", "political" ]
            },
            {
               "long_name" : "Central African Republic",
               "short_name" : "CF",
               "types" : [ "country", "political" ]
            }
         ],
         "formatted_address" : "Bangui, Central African Republic",
         "geometry" : {
            "bounds" : {
               "northeast" : {
                  "lat" : 4.433022,
                  "lng" : 18.6067809
               },
               "southwest" : {
                  "lat" : 4.312478,
                  "lng" : 18.5002999
               }
            },
            "location" : {
               "lat" : 4.385179,
               "lng" : 18.5463165
            },
            "location_type" : "APPROXIMATE",
            "viewport" : {
               "northeast" : {
                  "lat" : 4.433022,
                  "lng" : 18.6067809
               },
               "southwest" : {
                  "lat" : 4.312478,
                  "lng" : 18.5002999
               }
            }
         },
         "place_id" : "ChIJs37G0ojmuBAR-PvU6PkNpac",
         "types" : [ "administrative_area_level_1", "political" ]
      },
      {
         "address_components" : [
            {
               "long_name" : "Bangui-M'poko International Airport",
               "short_name" : "Bangui-M'poko International Airport",
               "types" : [ "airport", "establishment", "point_of_interest" ]
            },
            {
               "long_name" : "Bangui",
               "short_name" : "Bangui",
               "types" : [ "locality", "political" ]
            },
            {
               "long_name" : "Bangui",
               "short_name" : "Bangui",
               "types" : [ "administrative_area_level_2", "political" ]
            },
            {
               "long_name" : "Bangui",
               "short_name" : "Bangui",
               "types" : [ "administrative_area_level_1", "political" ]
            },
            {
               "long_name" : "Central African Republic",
               "short_name" : "CF",
               "types" : [ "country", "political" ]
            }
         ],
         "formatted_address" : "Bangui-M'poko International Airport, Bangui, Central African Republic",
         "geometry" : {
            "location" : {
               "lat" : 4.3988404,
               "lng" : 18.5241046
            },
            "location_type" : "GEOMETRIC_CENTER",
            "viewport" : {
               "northeast" : {
                  "lat" : 4.400189380291502,
                  "lng" : 18.5254535802915
               },
               "southwest" : {
                  "lat" : 4.397491419708499,
                  "lng" : 18.5227556197085
               }
            }
         },
         "place_id" : "ChIJMWYMqFLpuBARkJtn9XI0Hqw",
         "plus_code" : {
            "compound_code" : "9GXF+GJ Bangui, Central African Republic",
            "global_code" : "6FPW9GXF+GJ"
         },
         "types" : [ "airport", "establishment", "point_of_interest" ]
      },
      {
         "address_components" : [
            {
               "long_name" : "Bangui",
               "short_name" : "Bangui",
               "types" : [ "locality", "political" ]
            },
            {
               "long_name" : "Bangui",
               "short_name" : "Bangui",
               "types" : [ "administrative_area_level_2", "political" ]
            },
            {
               "long_name" : "Bangui",
               "short_name" : "Bangui",
               "types" : [ "administrative_area_level_1", "political" ]
            },
            {
               "long_name" : "Central African Republic",
               "short_name" : "CF",
               "types" : [ "country", "political" ]
            }
         ],
         "formatted_address" : "Bangui, Central African Republic",
         "geometry" : {
            "bounds" : {
               "northeast" : {
                  "lat" : 4.4323538,
                  "lng" : 18.6420063
               },
               "southwest" : {
                  "lat" : 4.3240908,
                  "lng" : 18.512392
               }
            },
            "location" : {
               "lat" : 4.3946735,
               "lng" : 18.5581899
            },
            "location_type" : "APPROXIMATE",
            "viewport" : {
               "northeast" : {
                  "lat" : 4.4323538,
                  "lng" : 18.6420063
               },
               "southwest" : {
                  "lat" : 4.3240908,
                  "lng" : 18.512392
               }
            }
         },
         "place_id" : "ChIJA6pX7RzvuBARGVX-9l1svQk",
         "types" : [ "locality", "political" ]
      }
   ],
   "status" : "OK"
}
