{
   "results" : [
      {
         "address_components" : [
            {
               "long_name" : "Brava",
               "short_name" : "Brava",
               "types" : [ "administrative_area_level_1", "political" ]
            },
            {
               "long_name" : "Cape Verde",
               "short_name" : "CV",
               "types" : [ "country", "political" ]
            }
         ],
         "formatted_address" : "Brava, Cape Verde",
         "geometry" : {
            "bounds" : {
               "northeast" : {
                  "lat" : 14.9791731,
                  "lng" : -24.640837
               },
               "southwest" : {
                  "lat" : 14.8012051,
                  "lng" : -24.751138
               }
            },
            "location" : {
               "lat" : 14.8661257,
               "lng" : -24.7024179
            },
            "location_type" : "APPROXIMATE",
            "viewport" : {
               "northeast" : {
                  "lat" : 14.9791731,
                  "lng" : -24.640837
               },
               "southwest" : {
                  "lat" : 14.8012051,
                  "lng" : -24.751138
               }
            }
         },
         "place_id" : "ChIJgxU0egw6NgkRGn3spbgrYC8",
         "types" : [ "administrative_area_level_1", "political" ]
      },
      {
         "address_components" : [
            {
               "long_name" : "Brava",
               "short_name" : "Brava",
               "types" : [ "establishment", "natural_feature" ]
            },
            {
               "long_name" : "Brava",
               "short_name" : "Brava",
               "types" : [ "administrative_area_level_1", "political" ]
            },
            {
               "long_name" : "Cape Verde",
               "short_name" : "CV",
               "types" : [ "country", "political" ]
            }
         ],
         "formatted_address" : "Brava, Cape Verde",
         "geometry" : {
            "bounds" : {
               "northeast" : {
                  "lat" : 14.9005264,
                  "lng" : -24.6645623
               },
               "southwest" : {
                  "lat" : 14.8026825,
                  "lng" : -24.749038
               }
            },
            "location" : {
               "lat" : 14.8444438,
               "lng" : -24.7024179
            },
            "location_type" : "APPROXIMATE",
            "viewport" : {
               "northeast" : {
                  "lat" : 14.9005264,
                  "lng" : -24.6645623
               },
               "southwest" : {
                  "lat" : 14.8026825,
                  "lng" : -24.749038
               }
            }
         },
         "place_id" : "ChIJzUmTXgw6NgkRB0Gv-A8fZDU",
         "types" : [ "establishment", "natural_feature" ]
      }
   ],
   "status" : "OK"
}
