{
   "results" : [
      {
         "address_components" : [
            {
               "long_name" : "Anseba",
               "short_name" : "Anseba",
               "types" : [ "establishment", "natural_feature" ]
            },
            {
               "long_name" : "Selaa",
               "short_name" : "Selaa",
               "types" : [ "administrative_area_level_2", "political" ]
            },
            {
               "long_name" : "Anseba",
               "short_name" : "Anseba",
               "types" : [ "administrative_area_level_1", "political" ]
            },
            {
               "long_name" : "Eritrea",
               "short_name" : "ER",
               "types" : [ "country", "political" ]
            }
         ],
         "formatted_address" : "Anseba, Eritrea",
         "geometry" : {
            "bounds" : {
               "northeast" : {
                  "lat" : 17.0116486,
                  "lng" : 37.4409771
               },
               "southwest" : {
                  "lat" : 17.0003221,
                  "lng" : 37.422223
               }
            },
            "location" : {
               "lat" : 17.0041311,
               "lng" : 37.4234424
            },
            "location_type" : "APPROXIMATE",
            "viewport" : {
               "northeast" : {
                  "lat" : 17.0116486,
                  "lng" : 37.4409771
               },
               "southwest" : {
                  "lat" : 17.0003221,
                  "lng" : 37.422223
               }
            }
         },
         "place_id" : "ChIJi2b8WhmtcBYRO7UnZ18h4ZE",
         "types" : [ "establishment", "natural_feature" ]
      },
      {
         "address_components" : [
            {
               "long_name" : "Anseba",
               "short_name" : "Anseba",
               "types" : [ "administrative_area_level_1", "political" ]
            },
            {
               "long_name" : "Eritrea",
               "short_name" : "ER",
               "types" : [ "country", "political" ]
            }
         ],
         "formatted_address" : "Anseba, Eritrea",
         "geometry" : {
            "bounds" : {
               "northeast" : {
                  "lat" : 17.557606,
                  "lng" : 38.8872519
               },
               "southwest" : {
                  "lat" : 15.521509,
                  "lng" : 36.8874469
               }
            },
            "location" : {
               "lat" : 16.4745531,
               "lng" : 37.8087693
            },
            "location_type" : "APPROXIMATE",
            "viewport" : {
               "northeast" : {
                  "lat" : 17.557606,
                  "lng" : 38.8872519
               },
               "southwest" : {
                  "lat" : 15.521509,
                  "lng" : 36.8874469
               }
            }
         },
         "place_id" : "ChIJK5muQGnkcBYRCYNh4yF4AXE",
         "types" : [ "administrative_area_level_1", "political" ]
      }
   ],
   "status" : "OK"
}
