{
   "results" : [
      {
         "address_components" : [
            {
               "long_name" : "Uxbridge",
               "short_name" : "Uxbridge",
               "types" : [ "locality", "political" ]
            },
            {
               "long_name" : "Uxbridge",
               "short_name" : "Uxbridge",
               "types" : [ "postal_town" ]
            },
            {
               "long_name" : "Greater London",
               "short_name" : "Greater London",
               "types" : [ "administrative_area_level_2", "political" ]
            },
            {
               "long_name" : "England",
               "short_name" : "England",
               "types" : [ "administrative_area_level_1", "political" ]
            },
            {
               "long_name" : "United Kingdom",
               "short_name" : "GB",
               "types" : [ "country", "political" ]
            }
         ],
         "formatted_address" : "Uxbridge, UK",
         "geometry" : {
            "bounds" : {
               "northeast" : {
                  "lat" : 51.5595788,
                  "lng" : -0.4326259
               },
               "southwest" : {
                  "lat" : 51.5155385,
                  "lng" : -0.4955082
               }
            },
            "location" : {
               "lat" : 51.5485,
               "lng" : -0.479611
            },
            "location_type" : "APPROXIMATE",
            "viewport" : {
               "northeast" : {
                  "lat" : 51.5595788,
                  "lng" : -0.4326259
               },
               "southwest" : {
                  "lat" : 51.5155385,
                  "lng" : -0.4955082
               }
            }
         },
         "partial_match" : true,
         "place_id" : "ChIJyW3R1SxpdkgRBc_46nCHJFE",
         "types" : [ "locality", "political" ]
      },
      {
         "address_components" : [
            {
               "long_name" : "Hillingdon",
               "short_name" : "Hillingdon",
               "types" : [ "political", "sublocality", "sublocality_level_1" ]
            },
            {
               "long_name" : "Uxbridge",
               "short_name" : "Uxbridge",
               "types" : [ "postal_town" ]
            },
            {
               "long_name" : "Greater London",
               "short_name" : "Greater London",
               "types" : [ "administrative_area_level_2", "political" ]
            },
            {
               "long_name" : "England",
               "short_name" : "England",
               "types" : [ "administrative_area_level_1", "political" ]
            },
            {
               "long_name" : "United Kingdom",
               "short_name" : "GB",
               "types" : [ "country", "political" ]
            }
         ],
         "formatted_address" : "Hillingdon, Uxbridge, UK",
         "geometry" : {
            "bounds" : {
               "northeast" : {
                  "lat" : 51.5544512,
                  "lng" : -0.4404345
               },
               "southwest" : {
                  "lat" : 51.5282278,
                  "lng" : -0.4567894
               }
            },
            "location" : {
               "lat" : 51.5378009,
               "lng" : -0.4511422
            },
            "location_type" : "APPROXIMATE",
            "viewport" : {
               "northeast" : {
                  "lat" : 51.5544512,
                  "lng" : -0.4404345
               },
               "southwest" : {
                  "lat" : 51.5282278,
                  "lng" : -0.4567894
               }
            }
         },
         "partial_match" : true,
         "place_id" : "ChIJz-7r6sZtdkgRoSXN_YVOM6k",
         "types" : [ "political", "sublocality", "sublocality_level_1" ]
      }
   ],
   "status" : "OK"
}
