{
   "results" : [
      {
         "address_components" : [
            {
               "long_name" : "Barnsbury",
               "short_name" : "Barnsbury",
               "types" : [ "neighborhood", "political" ]
            },
            {
               "long_name" : "London",
               "short_name" : "London",
               "types" : [ "postal_town" ]
            },
            {
               "long_name" : "Greater London",
               "short_name" : "Greater London",
               "types" : [ "administrative_area_level_2", "political" ]
            },
            {
               "long_name" : "England",
               "short_name" : "England",
               "types" : [ "administrative_area_level_1", "political" ]
            },
            {
               "long_name" : "United Kingdom",
               "short_name" : "GB",
               "types" : [ "country", "political" ]
            },
            {
               "long_name" : "N1 0DY",
               "short_name" : "N1 0DY",
               "types" : [ "postal_code" ]
            }
         ],
         "formatted_address" : "Barnsbury, London N1 0DY, UK",
         "geometry" : {
            "location" : {
               "lat" : 51.540356,
               "lng" : -0.118345
            },
            "location_type" : "APPROXIMATE",
            "viewport" : {
               "northeast" : {
                  "lat" : 51.54729529999999,
                  "lng" : -0.1023376
               },
               "southwest" : {
                  "lat" : 51.5334156,
                  "lng" : -0.1343524
               }
            }
         },
         "place_id" : "ChIJMQQ4oGkbdkgRhocC-G8dyJ8",
         "types" : [ "neighborhood", "political" ]
      },
      {
         "address_components" : [
            {
               "long_name" : "Islington",
               "short_name" : "Islington",
               "types" : [ "neighborhood", "political" ]
            },
            {
               "long_name" : "London",
               "short_name" : "London",
               "types" : [ "postal_town" ]
            },
            {
               "long_name" : "Greater London",
               "short_name" : "Greater London",
               "types" : [ "administrative_area_level_2", "political" ]
            },
            {
               "long_name" : "England",
               "short_name" : "England",
               "types" : [ "administrative_area_level_1", "political" ]
            },
            {
               "long_name" : "United Kingdom",
               "short_name" : "GB",
               "types" : [ "country", "political" ]
            }
         ],
         "formatted_address" : "Islington, London, UK",
         "geometry" : {
            "bounds" : {
               "northeast" : {
                  "lat" : 51.5437953,
                  "lng" : -0.0878685
               },
               "southwest" : {
                  "lat" : 51.5248283,
                  "lng" : -0.1236529
               }
            },
            "location" : {
               "lat" : 51.538621,
               "lng" : -0.1028346
            },
            "location_type" : "APPROXIMATE",
            "viewport" : {
               "northeast" : {
                  "lat" : 51.5437953,
                  "lng" : -0.0878685
               },
               "southwest" : {
                  "lat" : 51.5248283,
                  "lng" : -0.1236529
               }
            }
         },
         "place_id" : "ChIJbYmzrW4bdkgRrKWuY-3_qFo",
         "types" : [ "neighborhood", "political" ]
      }
   ],
   "status" : "OK"
}
