{
   "results" : [
      {
         "address_components" : [
            {
               "long_name" : "Western Region",
               "short_name" : "Western Region",
               "types" : [ "administrative_area_level_1", "political" ]
            },
            {
               "long_name" : "Ghana",
               "short_name" : "GH",
               "types" : [ "country", "political" ]
            }
         ],
         "formatted_address" : "Western Region, Ghana",
         "geometry" : {
            "bounds" : {
               "northeast" : {
                  "lat" : 7.052660899999999,
                  "lng" : -1.417818
               },
               "southwest" : {
                  "lat" : 4.736723,
                  "lng" : -3.25542
               }
            },
            "location" : {
               "lat" : 5.3901978,
               "lng" : -2.1450245
            },
            "location_type" : "APPROXIMATE",
            "viewport" : {
               "northeast" : {
                  "lat" : 7.052660899999999,
                  "lng" : -1.417818
               },
               "southwest" : {
                  "lat" : 4.736723,
                  "lng" : -3.25542
               }
            }
         },
         "partial_match" : true,
         "place_id" : "ChIJYefNHMaI5w8R0uyPTnVFbQg",
         "types" : [ "administrative_area_level_1", "political" ]
      },
      {
         "address_components" : [
            {
               "long_name" : "Wiawso",
               "short_name" : "Wiawso",
               "types" : [ "locality", "political" ]
            },
            {
               "long_name" : "Sefwi - Wiawso",
               "short_name" : "Sefwi - Wiawso",
               "types" : [ "administrative_area_level_2", "political" ]
            },
            {
               "long_name" : "Western Region",
               "short_name" : "Western Region",
               "types" : [ "administrative_area_level_1", "political" ]
            },
            {
               "long_name" : "Ghana",
               "short_name" : "GH",
               "types" : [ "country", "political" ]
            }
         ],
         "formatted_address" : "Wiawso, Ghana",
         "geometry" : {
            "location" : {
               "lat" : 6.2041543,
               "lng" : -2.4879986
            },
            "location_type" : "GEOMETRIC_CENTER",
            "viewport" : {
               "northeast" : {
                  "lat" : 6.205503280291502,
                  "lng" : -2.486649619708498
               },
               "southwest" : {
                  "lat" : 6.202805319708498,
                  "lng" : -2.489347580291502
               }
            }
         },
         "partial_match" : true,
         "place_id" : "ChIJ51M-mRFNww8R7aWkIB1Zc6g",
         "plus_code" : {
            "compound_code" : "6G36+MR Wiawso, Ghana",
            "global_code" : "6CRV6G36+MR"
         },
         "types" : [ "establishment", "point_of_interest" ]
      }
   ],
   "status" : "OK"
}
