{
   "results" : [
      {
         "address_components" : [
            {
               "long_name" : "» Szeged",
               "short_name" : "» Szeged",
               "types" : [ "route" ]
            },
            {
               "long_name" : "Szeged",
               "short_name" : "Szeged",
               "types" : [ "locality", "political" ]
            },
            {
               "long_name" : "Hungary",
               "short_name" : "HU",
               "types" : [ "country", "political" ]
            },
            {
               "long_name" : "6728",
               "short_name" : "6728",
               "types" : [ "postal_code" ]
            }
         ],
         "formatted_address" : "Szeged, » Szeged, 6728 Hungary",
         "geometry" : {
            "bounds" : {
               "northeast" : {
                  "lat" : 46.2676408,
                  "lng" : 20.1040694
               },
               "southwest" : {
                  "lat" : 46.2675169,
                  "lng" : 20.1036286
               }
            },
            "location" : {
               "lat" : 46.2676276,
               "lng" : 20.1040585
            },
            "location_type" : "GEOMETRIC_CENTER",
            "viewport" : {
               "northeast" : {
                  "lat" : 46.2689278302915,
                  "lng" : 20.1051979802915
               },
               "southwest" : {
                  "lat" : 46.2662298697085,
                  "lng" : 20.1025000197085
               }
            }
         },
         "place_id" : "ChIJnZ7rd5eHREcR_XmsoU7Z3Fw",
         "types" : [ "route" ]
      }
   ],
   "status" : "OK"
}
