{
   "results" : [
      {
         "address_components" : [
            {
               "long_name" : "Province of Monza and Brianza",
               "short_name" : "MB",
               "types" : [ "administrative_area_level_2", "political" ]
            },
            {
               "long_name" : "Lombardy",
               "short_name" : "Lombardy",
               "types" : [ "administrative_area_level_1", "political" ]
            },
            {
               "long_name" : "Italy",
               "short_name" : "IT",
               "types" : [ "country", "political" ]
            }
         ],
         "formatted_address" : "Province of Monza and Brianza, Italy",
         "geometry" : {
            "bounds" : {
               "northeast" : {
                  "lat" : 45.7427334,
                  "lng" : 9.4966723
               },
               "southwest" : {
                  "lat" : 45.536646,
                  "lng" : 9.0505239
               }
            },
            "location" : {
               "lat" : 45.623599,
               "lng" : 9.258801499999999
            },
            "location_type" : "APPROXIMATE",
            "viewport" : {
               "northeast" : {
                  "lat" : 45.7427334,
                  "lng" : 9.4966723
               },
               "southwest" : {
                  "lat" : 45.536646,
                  "lng" : 9.0505239
               }
            }
         },
         "place_id" : "ChIJi4eot6e7hkcR0H9oLgJ4BgM",
         "types" : [ "administrative_area_level_2", "political" ]
      },
      {
         "address_components" : [
            {
               "long_name" : "Monza",
               "short_name" : "Monza",
               "types" : [ "locality", "political" ]
            },
            {
               "long_name" : "Monza",
               "short_name" : "Monza",
               "types" : [ "administrative_area_level_3", "political" ]
            },
            {
               "long_name" : "Province of Monza and Brianza",
               "short_name" : "MB",
               "types" : [ "administrative_area_level_2", "political" ]
            },
            {
               "long_name" : "Lombardy",
               "short_name" : "Lombardy",
               "types" : [ "administrative_area_level_1", "political" ]
            },
            {
               "long_name" : "Italy",
               "short_name" : "IT",
               "types" : [ "country", "political" ]
            },
            {
               "long_name" : "20900",
               "short_name" : "20900",
               "types" : [ "postal_code" ]
            }
         ],
         "formatted_address" : "20900 Monza, Province of Monza and Brianza, Italy",
         "geometry" : {
            "bounds" : {
               "northeast" : {
                  "lat" : 45.6060649,
                  "lng" : 9.3241301
               },
               "southwest" : {
                  "lat" : 45.5532596,
                  "lng" : 9.2278433
               }
            },
            "location" : {
               "lat" : 45.5845001,
               "lng" : 9.2744485
            },
            "location_type" : "APPROXIMATE",
            "viewport" : {
               "northeast" : {
                  "lat" : 45.6060649,
                  "lng" : 9.3241301
               },
               "southwest" : {
                  "lat" : 45.5532596,
                  "lng" : 9.2278433
               }
            }
         },
         "place_id" : "ChIJh1tQNqG5hkcRnUQAylh9zBE",
         "types" : [ "locality", "political" ]
      }
   ],
   "status" : "OK"
}
