{
   "results" : [
      {
         "address_components" : [
            {
               "long_name" : "Saint George Basseterre Parish",
               "short_name" : "Saint George Basseterre Parish",
               "types" : [ "administrative_area_level_1", "political" ]
            },
            {
               "long_name" : "Saint Kitts and Nevis",
               "short_name" : "KN",
               "types" : [ "country", "political" ]
            }
         ],
         "formatted_address" : "Saint George Basseterre Parish, St Kitts & Nevis",
         "geometry" : {
            "bounds" : {
               "northeast" : {
                  "lat" : 17.320862,
                  "lng" : -62.6222161
               },
               "southwest" : {
                  "lat" : 17.213046,
                  "lng" : -62.751238
               }
            },
            "location" : {
               "lat" : 17.2350612,
               "lng" : -62.6442284
            },
            "location_type" : "APPROXIMATE",
            "viewport" : {
               "northeast" : {
                  "lat" : 17.320862,
                  "lng" : -62.6222161
               },
               "southwest" : {
                  "lat" : 17.213046,
                  "lng" : -62.751238
               }
            }
         },
         "place_id" : "ChIJwYyxFYcZEowReEZ5ah9n3LI",
         "types" : [ "administrative_area_level_1", "political" ]
      },
      {
         "address_components" : [
            {
               "long_name" : "Basseterre",
               "short_name" : "Basseterre",
               "types" : [ "locality", "political" ]
            },
            {
               "long_name" : "Saint George Basseterre",
               "short_name" : "Saint George Basseterre",
               "types" : [ "administrative_area_level_2", "political" ]
            },
            {
               "long_name" : "Saint George Basseterre Parish",
               "short_name" : "Saint George Basseterre Parish",
               "types" : [ "administrative_area_level_1", "political" ]
            },
            {
               "long_name" : "Saint Kitts and Nevis",
               "short_name" : "KN",
               "types" : [ "country", "political" ]
            }
         ],
         "formatted_address" : "Basseterre, St Kitts & Nevis",
         "geometry" : {
            "bounds" : {
               "northeast" : {
                  "lat" : 17.3181538,
                  "lng" : -62.6997201
               },
               "southwest" : {
                  "lat" : 17.2862339,
                  "lng" : -62.7299488
               }
            },
            "location" : {
               "lat" : 17.3026058,
               "lng" : -62.7176924
            },
            "location_type" : "APPROXIMATE",
            "viewport" : {
               "northeast" : {
                  "lat" : 17.3181538,
                  "lng" : -62.6997201
               },
               "southwest" : {
                  "lat" : 17.2862339,
                  "lng" : -62.7299488
               }
            }
         },
         "place_id" : "ChIJy4VyQoobEowRz0-rkEv6xOQ",
         "types" : [ "locality", "political" ]
      }
   ],
   "status" : "OK"
}
