{
   "results" : [
      {
         "address_components" : [
            {
               "long_name" : "Busan",
               "short_name" : "Busan",
               "types" : [ "administrative_area_level_1", "political" ]
            },
            {
               "long_name" : "South Korea",
               "short_name" : "KR",
               "types" : [ "country", "political" ]
            }
         ],
         "formatted_address" : "Busan, South Korea",
         "geometry" : {
            "bounds" : {
               "northeast" : {
                  "lat" : 35.3874414,
                  "lng" : 129.3344242
               },
               "southwest" : {
                  "lat" : 34.8531186,
                  "lng" : 128.7531524
               }
            },
            "location" : {
               "lat" : 35.1795543,
               "lng" : 129.0756416
            },
            "location_type" : "APPROXIMATE",
            "viewport" : {
               "northeast" : {
                  "lat" : 35.3874414,
                  "lng" : 129.3344242
               },
               "southwest" : {
                  "lat" : 34.8531186,
                  "lng" : 128.7531524
               }
            }
         },
         "place_id" : "ChIJqZjUy9vraDURmLFhwtWPqi4",
         "types" : [ "administrative_area_level_1", "political" ]
      },
      {
         "address_components" : [
            {
               "long_name" : "Busan",
               "short_name" : "Busan",
               "types" : [ "locality", "political" ]
            },
            {
               "long_name" : "Busan",
               "short_name" : "Busan",
               "types" : [ "administrative_area_level_1", "political" ]
            },
            {
               "long_name" : "South Korea",
               "short_name" : "KR",
               "types" : [ "country", "political" ]
            }
         ],
         "formatted_address" : "Busan, South Korea",
         "geometry" : {
            "bounds" : {
               "northeast" : {
                  "lat" : 35.3874414,
                  "lng" : 129.3344242
               },
               "southwest" : {
                  "lat" : 34.8531186,
                  "lng" : 128.7531524
               }
            },
            "location" : {
               "lat" : 35.1795543,
               "lng" : 129.0756416
            },
            "location_type" : "APPROXIMATE",
            "viewport" : {
               "northeast" : {
                  "lat" : 35.3874414,
                  "lng" : 129.3344242
               },
               "southwest" : {
                  "lat" : 34.8531186,
                  "lng" : 128.7531524
               }
            }
         },
         "place_id" : "ChIJNc0j6G3raDURpwhxJHTL2DU",
         "types" : [ "locality", "political" ]
      },
      {
         "address_components" : [
            {
               "long_name" : "좌동순환로",
               "short_name" : "좌동순환로",
               "types" : [ "political", "sublocality", "sublocality_level_4" ]
            },
            {
               "long_name" : "중동",
               "short_name" : "중동",
               "types" : [ "political", "sublocality", "sublocality_level_2" ]
            },
            {
               "long_name" : "해운대구",
               "short_name" : "해운대구",
               "types" : [ "political", "sublocality", "sublocality_level_1" ]
            },
            {
               "long_name" : "부산광역시",
               "short_name" : "부산광역시",
               "types" : [ "administrative_area_level_1", "political" ]
            },
            {
               "long_name" : "South Korea",
               "short_name" : "KR",
               "types" : [ "country", "political" ]
            },
            {
               "long_name" : "612-010",
               "short_name" : "612-010",
               "types" : [ "postal_code" ]
            }
         ],
         "formatted_address" : "Gwangyeoksi, Haeundae-gu, 402, Raemian Apartments 105-3102, 좌동순환로 중동 해운대구 부산광역시 South Korea",
         "geometry" : {
            "location" : {
               "lat" : 35.163478,
               "lng" : 129.176042
            },
            "location_type" : "ROOFTOP",
            "viewport" : {
               "northeast" : {
                  "lat" : 35.1648269802915,
                  "lng" : 129.1773909802915
               },
               "southwest" : {
                  "lat" : 35.1621290197085,
                  "lng" : 129.1746930197085
               }
            }
         },
         "place_id" : "ChIJ8cn2JBONaDURPIn0u65Iog0",
         "plus_code" : {
            "compound_code" : "557G+9C Busan, South Korea",
            "global_code" : "8Q7F557G+9C"
         },
         "types" : [ "establishment", "lodging", "point_of_interest" ]
      }
   ],
   "status" : "OK"
}
