{
   "results" : [
      {
         "address_components" : [
            {
               "long_name" : "Klaipėda",
               "short_name" : "Klaipėda",
               "types" : [ "locality", "political" ]
            },
            {
               "long_name" : "Klaipeda City Municipality",
               "short_name" : "Klaipeda City Municipality",
               "types" : [ "administrative_area_level_2", "political" ]
            },
            {
               "long_name" : "Klaipėda County",
               "short_name" : "Klaipėda County",
               "types" : [ "administrative_area_level_1", "political" ]
            },
            {
               "long_name" : "Lithuania",
               "short_name" : "LT",
               "types" : [ "country", "political" ]
            }
         ],
         "formatted_address" : "Klaipėda, Lithuania",
         "geometry" : {
            "bounds" : {
               "northeast" : {
                  "lat" : 55.7973229,
                  "lng" : 21.2404669
               },
               "southwest" : {
                  "lat" : 55.613358,
                  "lng" : 21.075318
               }
            },
            "location" : {
               "lat" : 55.70329479999999,
               "lng" : 21.1442795
            },
            "location_type" : "APPROXIMATE",
            "viewport" : {
               "northeast" : {
                  "lat" : 55.7973229,
                  "lng" : 21.2404669
               },
               "southwest" : {
                  "lat" : 55.613358,
                  "lng" : 21.075318
               }
            }
         },
         "place_id" : "ChIJi0RH5Prb5EYRoYdtFGe8rIA",
         "types" : [ "locality", "political" ]
      },
      {
         "address_components" : [
            {
               "long_name" : "Klaipėda",
               "short_name" : "Klaipėda",
               "types" : [ "locality", "political" ]
            },
            {
               "long_name" : "Klaipeda City Municipality",
               "short_name" : "Klaipeda City Municipality",
               "types" : [ "administrative_area_level_2", "political" ]
            },
            {
               "long_name" : "Klaipėda County",
               "short_name" : "Klaipėda County",
               "types" : [ "administrative_area_level_1", "political" ]
            },
            {
               "long_name" : "Lithuania",
               "short_name" : "LT",
               "types" : [ "country", "political" ]
            },
            {
               "long_name" : "92138",
               "short_name" : "92138",
               "types" : [ "postal_code" ]
            }
         ],
         "formatted_address" : "Klaipėda 92138, Lithuania",
         "geometry" : {
            "location" : {
               "lat" : 55.71255,
               "lng" : 21.1341921
            },
            "location_type" : "GEOMETRIC_CENTER",
            "viewport" : {
               "northeast" : {
                  "lat" : 55.7138989802915,
                  "lng" : 21.1355410802915
               },
               "southwest" : {
                  "lat" : 55.7112010197085,
                  "lng" : 21.1328431197085
               }
            }
         },
         "place_id" : "ChIJnUf43_rb5EYRSNtactEaqtQ",
         "plus_code" : {
            "compound_code" : "P47M+2M Klaipėda, Lithuania",
            "global_code" : "9G73P47M+2M"
         },
         "types" : [
            "city_hall",
            "establishment",
            "local_government_office",
            "point_of_interest"
         ]
      }
   ],
   "status" : "OK"
}
