{
   "results" : [
      {
         "address_components" : [
            {
               "long_name" : "Exotic Garden of Monaco",
               "short_name" : "Exotic Garden of Monaco",
               "types" : [ "establishment", "park", "point_of_interest", "tourist_attraction" ]
            },
            {
               "long_name" : "62",
               "short_name" : "62",
               "types" : [ "street_number" ]
            },
            {
               "long_name" : "Boulevard du Jardin Exotique",
               "short_name" : "Boulevard du Jardin Exotique",
               "types" : [ "route" ]
            },
            {
               "long_name" : "Monaco",
               "short_name" : "Monaco",
               "types" : [ "locality", "political" ]
            },
            {
               "long_name" : "Monaco",
               "short_name" : "MC",
               "types" : [ "country", "political" ]
            },
            {
               "long_name" : "98000",
               "short_name" : "98000",
               "types" : [ "postal_code" ]
            }
         ],
         "formatted_address" : "Exotic Garden of Monaco, 62 Boulevard du Jardin Exotique, 98000 Monaco",
         "geometry" : {
            "location" : {
               "lat" : 43.73135,
               "lng" : 7.413945999999999
            },
            "location_type" : "ROOFTOP",
            "viewport" : {
               "northeast" : {
                  "lat" : 43.7326989802915,
                  "lng" : 7.415294980291502
               },
               "southwest" : {
                  "lat" : 43.7300010197085,
                  "lng" : 7.412597019708497
               }
            }
         },
         "partial_match" : true,
         "place_id" : "ChIJoRCEd-3CzRIRQYW90YHmJPM",
         "plus_code" : {
            "compound_code" : "PCJ7+GH Monaco",
            "global_code" : "8FM9PCJ7+GH"
         },
         "types" : [ "establishment", "park", "point_of_interest", "tourist_attraction" ]
      },
      {
         "address_components" : [
            {
               "long_name" : "Jardin Exotique",
               "short_name" : "Jardin Exotique",
               "types" : [ "political", "sublocality", "sublocality_level_1" ]
            },
            {
               "long_name" : "Monaco",
               "short_name" : "Monaco",
               "types" : [ "locality", "political" ]
            },
            {
               "long_name" : "Monaco",
               "short_name" : "MC",
               "types" : [ "country", "political" ]
            }
         ],
         "formatted_address" : "Jardin Exotique, Monaco",
         "geometry" : {
            "bounds" : {
               "northeast" : {
                  "lat" : 43.7359917,
                  "lng" : 7.417485300000001
               },
               "southwest" : {
                  "lat" : 43.7281461,
                  "lng" : 7.4090982
               }
            },
            "location" : {
               "lat" : 43.7325269,
               "lng" : 7.414477799999999
            },
            "location_type" : "APPROXIMATE",
            "viewport" : {
               "northeast" : {
                  "lat" : 43.7359917,
                  "lng" : 7.417485300000001
               },
               "southwest" : {
                  "lat" : 43.7281461,
                  "lng" : 7.4090982
               }
            }
         },
         "partial_match" : true,
         "place_id" : "ChIJK75PfvLCzRIRzJbnjuy2Bgg",
         "types" : [ "political", "sublocality", "sublocality_level_1" ]
      }
   ],
   "status" : "OK"
}
