{
   "results" : [
      {
         "address_components" : [
            {
               "long_name" : "Tasman District",
               "short_name" : "Tasman District",
               "types" : [ "administrative_area_level_2", "political" ]
            },
            {
               "long_name" : "Tasman",
               "short_name" : "Tasman",
               "types" : [ "administrative_area_level_1", "political" ]
            },
            {
               "long_name" : "New Zealand",
               "short_name" : "NZ",
               "types" : [ "country", "political" ]
            }
         ],
         "formatted_address" : "Tasman District, Tasman, New Zealand",
         "geometry" : {
            "bounds" : {
               "northeast" : {
                  "lat" : -40.4980299,
                  "lng" : 173.2318855
               },
               "southwest" : {
                  "lat" : -42.3055977,
                  "lng" : 172.093419
               }
            },
            "location" : {
               "lat" : -41.2122123,
               "lng" : 172.7347142
            },
            "location_type" : "APPROXIMATE",
            "viewport" : {
               "northeast" : {
                  "lat" : -40.4980299,
                  "lng" : 173.2318855
               },
               "southwest" : {
                  "lat" : -42.3055977,
                  "lng" : 172.093419
               }
            }
         },
         "place_id" : "ChIJBeqAsw67PG0RwFZ5hIbvAAQ",
         "types" : [ "administrative_area_level_2", "political" ]
      },
      {
         "address_components" : [
            {
               "long_name" : "Tasman",
               "short_name" : "Tasman",
               "types" : [ "locality", "political" ]
            },
            {
               "long_name" : "Tasman",
               "short_name" : "Tasman",
               "types" : [ "administrative_area_level_1", "political" ]
            },
            {
               "long_name" : "New Zealand",
               "short_name" : "NZ",
               "types" : [ "country", "political" ]
            }
         ],
         "formatted_address" : "Tasman, New Zealand",
         "geometry" : {
            "bounds" : {
               "northeast" : {
                  "lat" : -41.1565378,
                  "lng" : 173.0820651
               },
               "southwest" : {
                  "lat" : -41.23504399999999,
                  "lng" : 173.0042131
               }
            },
            "location" : {
               "lat" : -41.1889596,
               "lng" : 173.0504137
            },
            "location_type" : "APPROXIMATE",
            "viewport" : {
               "northeast" : {
                  "lat" : -41.1565378,
                  "lng" : 173.0820651
               },
               "southwest" : {
                  "lat" : -41.23504399999999,
                  "lng" : 173.0042131
               }
            }
         },
         "place_id" : "ChIJxUfFXgSFO20RUNJ5hIbvAAU",
         "types" : [ "locality", "political" ]
      }
   ],
   "status" : "OK"
}
