{
   "results" : [
      {
         "address_components" : [
            {
               "long_name" : "Minsk Mazowiecki",
               "short_name" : "Minsk Mazowiecki",
               "types" : [ "locality", "political" ]
            },
            {
               "long_name" : "Mińsk County",
               "short_name" : "Mińsk County",
               "types" : [ "administrative_area_level_2", "political" ]
            },
            {
               "long_name" : "Masovian Voivodeship",
               "short_name" : "Masovian Voivodeship",
               "types" : [ "administrative_area_level_1", "political" ]
            },
            {
               "long_name" : "Poland",
               "short_name" : "PL",
               "types" : [ "country", "political" ]
            },
            {
               "long_name" : "05-303",
               "short_name" : "05-303",
               "types" : [ "postal_code" ]
            }
         ],
         "formatted_address" : "05-303 Minsk Mazowiecki, Poland",
         "geometry" : {
            "bounds" : {
               "northeast" : {
                  "lat" : 52.1981165,
                  "lng" : 21.6038198
               },
               "southwest" : {
                  "lat" : 52.1601329,
                  "lng" : 21.5096088
               }
            },
            "location" : {
               "lat" : 52.1792836,
               "lng" : 21.5721057
            },
            "location_type" : "APPROXIMATE",
            "viewport" : {
               "northeast" : {
                  "lat" : 52.1981165,
                  "lng" : 21.6038198
               },
               "southwest" : {
                  "lat" : 52.1601329,
                  "lng" : 21.5096088
               }
            }
         },
         "place_id" : "ChIJGX0QdiosH0cRwW7bopB9x0w",
         "types" : [ "locality", "political" ]
      },
      {
         "address_components" : [
            {
               "long_name" : "Tomaszow Mazowiecki",
               "short_name" : "Tomaszow Mazowiecki",
               "types" : [ "locality", "political" ]
            },
            {
               "long_name" : "Tomaszów Mazowiecki County",
               "short_name" : "Tomaszów Mazowiecki County",
               "types" : [ "administrative_area_level_2", "political" ]
            },
            {
               "long_name" : "Łódź Voivodeship",
               "short_name" : "Łódź Voivodeship",
               "types" : [ "administrative_area_level_1", "political" ]
            },
            {
               "long_name" : "Poland",
               "short_name" : "PL",
               "types" : [ "country", "political" ]
            },
            {
               "long_name" : "97-200",
               "short_name" : "97-200",
               "types" : [ "postal_code" ]
            }
         ],
         "formatted_address" : "97-200 Tomaszow Mazowiecki, Poland",
         "geometry" : {
            "bounds" : {
               "northeast" : {
                  "lat" : 51.561724,
                  "lng" : 20.0876192
               },
               "southwest" : {
                  "lat" : 51.4802196,
                  "lng" : 19.9650385
               }
            },
            "location" : {
               "lat" : 51.5311945,
               "lng" : 20.0086471
            },
            "location_type" : "APPROXIMATE",
            "viewport" : {
               "northeast" : {
                  "lat" : 51.561724,
                  "lng" : 20.0876192
               },
               "southwest" : {
                  "lat" : 51.4802196,
                  "lng" : 19.9650385
               }
            }
         },
         "place_id" : "ChIJ50JuaM6aGUcRVACWDrOuVDY",
         "types" : [ "locality", "political" ]
      }
   ],
   "status" : "OK"
}
