{
   "results" : [
      {
         "address_components" : [
            {
               "long_name" : "Beau Vallon",
               "short_name" : "Beau Vallon",
               "types" : [ "administrative_area_level_1", "political" ]
            },
            {
               "long_name" : "Seychelles",
               "short_name" : "SC",
               "types" : [ "country", "political" ]
            }
         ],
         "formatted_address" : "Beau Vallon, Seychelles",
         "geometry" : {
            "bounds" : {
               "northeast" : {
                  "lat" : -4.595162,
                  "lng" : 55.448532
               },
               "southwest" : {
                  "lat" : -4.6286721,
                  "lng" : 55.4208909
               }
            },
            "location" : {
               "lat" : -4.608384399999999,
               "lng" : 55.4333172
            },
            "location_type" : "APPROXIMATE",
            "viewport" : {
               "northeast" : {
                  "lat" : -4.595162,
                  "lng" : 55.448532
               },
               "southwest" : {
                  "lat" : -4.6286721,
                  "lng" : 55.4208909
               }
            }
         },
         "place_id" : "ChIJD_W9h-8o4CIREyl_m3CozII",
         "types" : [ "administrative_area_level_1", "political" ]
      },
      {
         "address_components" : [
            {
               "long_name" : "Seychelles",
               "short_name" : "SC",
               "types" : [ "country", "political" ]
            }
         ],
         "formatted_address" : "Seychelles",
         "geometry" : {
            "bounds" : {
               "northeast" : {
                  "lat" : -3.7091721,
                  "lng" : 56.3928224
               },
               "southwest" : {
                  "lat" : -10.4716073,
                  "lng" : 45.9832764
               }
            },
            "location" : {
               "lat" : -4.679574,
               "lng" : 55.491977
            },
            "location_type" : "APPROXIMATE",
            "viewport" : {
               "northeast" : {
                  "lat" : -3.7091721,
                  "lng" : 56.3928224
               },
               "southwest" : {
                  "lat" : -10.4716073,
                  "lng" : 45.9832764
               }
            }
         },
         "place_id" : "ChIJO62-cP0hXCIR99pJ06DQ0zI",
         "types" : [ "country", "political" ]
      },
      {
         "address_components" : [
            {
               "long_name" : "Anse Royale",
               "short_name" : "Anse Royale",
               "types" : [ "administrative_area_level_1", "political" ]
            },
            {
               "long_name" : "Seychelles",
               "short_name" : "SC",
               "types" : [ "country", "political" ]
            }
         ],
         "formatted_address" : "Anse Royale, Seychelles",
         "geometry" : {
            "bounds" : {
               "northeast" : {
                  "lat" : -4.719135,
                  "lng" : 55.521572
               },
               "southwest" : {
                  "lat" : -4.7619429,
                  "lng" : 55.499506
               }
            },
            "location" : {
               "lat" : -4.7431332,
               "lng" : 55.51087219999999
            },
            "location_type" : "APPROXIMATE",
            "viewport" : {
               "northeast" : {
                  "lat" : -4.719135,
                  "lng" : 55.521572
               },
               "southwest" : {
                  "lat" : -4.7619429,
                  "lng" : 55.499506
               }
            }
         },
         "place_id" : "ChIJB1EfJr8qHiMRNNO8r43v-_M",
         "types" : [ "administrative_area_level_1", "political" ]
      },
      {
         "address_components" : [
            {
               "long_name" : "Takamaka",
               "short_name" : "Takamaka",
               "types" : [ "administrative_area_level_1", "political" ]
            },
            {
               "long_name" : "Seychelles",
               "short_name" : "SC",
               "types" : [ "country", "political" ]
            }
         ],
         "formatted_address" : "Takamaka, Seychelles",
         "geometry" : {
            "bounds" : {
               "northeast" : {
                  "lat" : -4.758724,
                  "lng" : 55.534912
               },
               "southwest" : {
                  "lat" : -4.8050308,
                  "lng" : 55.486445
               }
            },
            "location" : {
               "lat" : -4.7843688,
               "lng" : 55.5081012
            },
            "location_type" : "APPROXIMATE",
            "viewport" : {
               "northeast" : {
                  "lat" : -4.758724,
                  "lng" : 55.534912
               },
               "southwest" : {
                  "lat" : -4.8050308,
                  "lng" : 55.486445
               }
            }
         },
         "place_id" : "ChIJazdGFBUqHiMRH7jRZTpLtjc",
         "types" : [ "administrative_area_level_1", "political" ]
      },
      {
         "address_components" : [
            {
               "long_name" : "Seychelles",
               "short_name" : "SC",
               "types" : [ "country", "political" ]
            },
            {
               "long_name" : "Mare Anglaise",
               "short_name" : "Mare Anglaise",
               "types" : [ "locality", "political" ]
            },
            {
               "long_name" : "Beau Vallon",
               "short_name" : "Beau Vallon",
               "types" : [ "administrative_area_level_1", "political" ]
            }
         ],
         "formatted_address" : "Mare Anglaise, Seychelles",
         "geometry" : {
            "location" : {
               "lat" : -4.6091979,
               "lng" : 55.432409
            },
            "location_type" : "GEOMETRIC_CENTER",
            "viewport" : {
               "northeast" : {
                  "lat" : -4.607848919708498,
                  "lng" : 55.4337579802915
               },
               "southwest" : {
                  "lat" : -4.610546880291502,
                  "lng" : 55.4310600197085
               }
            }
         },
         "place_id" : "ChIJT3hvfO8o4CIRddfibwkC-0o",
         "plus_code" : {
            "compound_code" : "9CRJ+8X Mare Anglaise, Seychelles",
            "global_code" : "6H7Q9CRJ+8X"
         },
         "types" : [ "establishment", "lodging", "point_of_interest" ]
      },
      {
         "address_components" : [
            {
               "long_name" : "La Riviere Anglaise",
               "short_name" : "La Riviere Anglaise",
               "types" : [ "administrative_area_level_1", "political" ]
            },
            {
               "long_name" : "Seychelles",
               "short_name" : "SC",
               "types" : [ "country", "political" ]
            }
         ],
         "formatted_address" : "La Riviere Anglaise, Seychelles",
         "geometry" : {
            "bounds" : {
               "northeast" : {
                  "lat" : -4.6065289,
                  "lng" : 55.45902599999999
               },
               "southwest" : {
                  "lat" : -4.624853,
                  "lng" : 55.4484299
               }
            },
            "location" : {
               "lat" : -4.6149553,
               "lng" : 55.4540841
            },
            "location_type" : "APPROXIMATE",
            "viewport" : {
               "northeast" : {
                  "lat" : -4.6065289,
                  "lng" : 55.45902599999999
               },
               "southwest" : {
                  "lat" : -4.624853,
                  "lng" : 55.4484299
               }
            }
         },
         "place_id" : "ChIJjVxDZ1Eo4CIR2xA-Vjy1-nU",
         "types" : [ "administrative_area_level_1", "political" ]
      },
      {
         "address_components" : [
            {
               "long_name" : "Bel Ombre",
               "short_name" : "Bel Ombre",
               "types" : [ "administrative_area_level_1", "political" ]
            },
            {
               "long_name" : "Seychelles",
               "short_name" : "SC",
               "types" : [ "country", "political" ]
            }
         ],
         "formatted_address" : "Bel Ombre, Seychelles",
         "geometry" : {
            "bounds" : {
               "northeast" : {
                  "lat" : -4.613279,
                  "lng" : 55.4330091
               },
               "southwest" : {
                  "lat" : -4.6465749,
                  "lng" : 55.383194
               }
            },
            "location" : {
               "lat" : -4.6285492,
               "lng" : 55.4056356
            },
            "location_type" : "APPROXIMATE",
            "viewport" : {
               "northeast" : {
                  "lat" : -4.613279,
                  "lng" : 55.4330091
               },
               "southwest" : {
                  "lat" : -4.6465749,
                  "lng" : 55.383194
               }
            }
         },
         "place_id" : "ChIJsRR4GDIp4CIRGaEvbTKS-JE",
         "types" : [ "administrative_area_level_1", "political" ]
      },
      {
         "address_components" : [
            {
               "long_name" : "Bel Air",
               "short_name" : "Bel Air",
               "types" : [ "administrative_area_level_1", "political" ]
            },
            {
               "long_name" : "Seychelles",
               "short_name" : "SC",
               "types" : [ "country", "political" ]
            }
         ],
         "formatted_address" : "Bel Air, Seychelles",
         "geometry" : {
            "bounds" : {
               "northeast" : {
                  "lat" : -4.619837,
                  "lng" : 55.46116499999999
               },
               "southwest" : {
                  "lat" : -4.657465,
                  "lng" : 55.4380879
               }
            },
            "location" : {
               "lat" : -4.6440325,
               "lng" : 55.4499303
            },
            "location_type" : "APPROXIMATE",
            "viewport" : {
               "northeast" : {
                  "lat" : -4.619837,
                  "lng" : 55.46116499999999
               },
               "southwest" : {
                  "lat" : -4.657465,
                  "lng" : 55.4380879
               }
            }
         },
         "place_id" : "ChIJSyFyjp8p4CIR7b3IlYLd4qI",
         "types" : [ "administrative_area_level_1", "political" ]
      },
      {
         "address_components" : [
            {
               "long_name" : "Port Glaud",
               "short_name" : "Port Glaud",
               "types" : [ "administrative_area_level_1", "political" ]
            },
            {
               "long_name" : "Seychelles",
               "short_name" : "SC",
               "types" : [ "country", "political" ]
            }
         ],
         "formatted_address" : "Port Glaud, Seychelles",
         "geometry" : {
            "bounds" : {
               "northeast" : {
                  "lat" : -4.625141,
                  "lng" : 55.4511051
               },
               "southwest" : {
                  "lat" : -4.6798099,
                  "lng" : 55.3605731
               }
            },
            "location" : {
               "lat" : -4.6488523,
               "lng" : 55.41947529999999
            },
            "location_type" : "APPROXIMATE",
            "viewport" : {
               "northeast" : {
                  "lat" : -4.625141,
                  "lng" : 55.4511051
               },
               "southwest" : {
                  "lat" : -4.6798099,
                  "lng" : 55.3605731
               }
            }
         },
         "place_id" : "ChIJWSzgNTEs4CIRte6CT2C2ILI",
         "types" : [ "administrative_area_level_1", "political" ]
      },
      {
         "address_components" : [
            {
               "long_name" : "Glacis",
               "short_name" : "Glacis",
               "types" : [ "administrative_area_level_1", "political" ]
            },
            {
               "long_name" : "Seychelles",
               "short_name" : "SC",
               "types" : [ "country", "political" ]
            }
         ],
         "formatted_address" : "Glacis, Seychelles",
         "geometry" : {
            "bounds" : {
               "northeast" : {
                  "lat" : -4.563845,
                  "lng" : 55.462322
               },
               "southwest" : {
                  "lat" : -4.59676,
                  "lng" : 55.4285509
               }
            },
            "location" : {
               "lat" : -4.5719729,
               "lng" : 55.4416234
            },
            "location_type" : "APPROXIMATE",
            "viewport" : {
               "northeast" : {
                  "lat" : -4.563845,
                  "lng" : 55.462322
               },
               "southwest" : {
                  "lat" : -4.59676,
                  "lng" : 55.4285509
               }
            }
         },
         "place_id" : "ChIJqYh5sy0m4CIRStCjqAl_8nA",
         "types" : [ "administrative_area_level_1", "political" ]
      }
   ],
   "status" : "OK"
}
