{
   "results" : [
      {
         "address_components" : [
            {
               "long_name" : "Mityana",
               "short_name" : "Mityana",
               "types" : [ "locality", "political" ]
            },
            {
               "long_name" : "Mityana",
               "short_name" : "Mityana",
               "types" : [ "administrative_area_level_2", "political" ]
            },
            {
               "long_name" : "Central Region",
               "short_name" : "Central Region",
               "types" : [ "administrative_area_level_1", "political" ]
            },
            {
               "long_name" : "Uganda",
               "short_name" : "UG",
               "types" : [ "country", "political" ]
            }
         ],
         "formatted_address" : "Mityana, Uganda",
         "geometry" : {
            "bounds" : {
               "northeast" : {
                  "lat" : 0.4203956,
                  "lng" : 32.0710365
               },
               "southwest" : {
                  "lat" : 0.3833989,
                  "lng" : 32.0198165
               }
            },
            "location" : {
               "lat" : 0.4016398,
               "lng" : 32.043969
            },
            "location_type" : "APPROXIMATE",
            "viewport" : {
               "northeast" : {
                  "lat" : 0.4203956,
                  "lng" : 32.0710365
               },
               "southwest" : {
                  "lat" : 0.3833989,
                  "lng" : 32.0198165
               }
            }
         },
         "partial_match" : true,
         "place_id" : "ChIJHSsBi5oZfRcRylSQTsxXUDI",
         "types" : [ "locality", "political" ]
      },
      {
         "address_components" : [
            {
               "long_name" : "Nakaseke",
               "short_name" : "Nakaseke",
               "types" : [ "administrative_area_level_2", "political" ]
            },
            {
               "long_name" : "Central Region",
               "short_name" : "Central Region",
               "types" : [ "administrative_area_level_1", "political" ]
            },
            {
               "long_name" : "Uganda",
               "short_name" : "UG",
               "types" : [ "country", "political" ]
            }
         ],
         "formatted_address" : "Nakaseke, Uganda",
         "geometry" : {
            "bounds" : {
               "northeast" : {
                  "lat" : 1.4681259,
                  "lng" : 32.4966469
               },
               "southwest" : {
                  "lat" : 0.537399,
                  "lng" : 31.8413771
               }
            },
            "location" : {
               "lat" : 1.2230848,
               "lng" : 32.0837445
            },
            "location_type" : "APPROXIMATE",
            "viewport" : {
               "northeast" : {
                  "lat" : 1.4681259,
                  "lng" : 32.4966469
               },
               "southwest" : {
                  "lat" : 0.537399,
                  "lng" : 31.8413771
               }
            }
         },
         "partial_match" : true,
         "place_id" : "ChIJRRtOg0p9excRqLW1E36wvxg",
         "types" : [ "administrative_area_level_2", "political" ]
      }
   ],
   "status" : "OK"
}
