{
   "results" : [
      {
         "address_components" : [
            {
               "long_name" : "Bududa",
               "short_name" : "Bududa",
               "types" : [ "locality", "political" ]
            },
            {
               "long_name" : "Bududa",
               "short_name" : "Bududa",
               "types" : [ "administrative_area_level_2", "political" ]
            },
            {
               "long_name" : "Eastern Region",
               "short_name" : "Eastern Region",
               "types" : [ "administrative_area_level_1", "political" ]
            },
            {
               "long_name" : "Uganda",
               "short_name" : "UG",
               "types" : [ "country", "political" ]
            }
         ],
         "formatted_address" : "Bududa, Uganda",
         "geometry" : {
            "bounds" : {
               "northeast" : {
                  "lat" : 1.011033,
                  "lng" : 34.3380904
               },
               "southwest" : {
                  "lat" : 0.9976026,
                  "lng" : 34.3259883
               }
            },
            "location" : {
               "lat" : 1.0029693,
               "lng" : 34.3338123
            },
            "location_type" : "APPROXIMATE",
            "viewport" : {
               "northeast" : {
                  "lat" : 1.011033,
                  "lng" : 34.3380904
               },
               "southwest" : {
                  "lat" : 0.9976026,
                  "lng" : 34.3259883
               }
            }
         },
         "partial_match" : true,
         "place_id" : "ChIJAb766VeteBcRoMmk06hTGgY",
         "types" : [ "locality", "political" ]
      },
      {
         "address_components" : [
            {
               "long_name" : "Bukwo",
               "short_name" : "Bukwo",
               "types" : [ "administrative_area_level_2", "political" ]
            },
            {
               "long_name" : "Eastern Region",
               "short_name" : "Eastern Region",
               "types" : [ "administrative_area_level_1", "political" ]
            },
            {
               "long_name" : "Uganda",
               "short_name" : "UG",
               "types" : [ "country", "political" ]
            }
         ],
         "formatted_address" : "Bukwo, Uganda",
         "geometry" : {
            "bounds" : {
               "northeast" : {
                  "lat" : 1.418265,
                  "lng" : 34.829762
               },
               "southwest" : {
                  "lat" : 1.101049,
                  "lng" : 34.543932
               }
            },
            "location" : {
               "lat" : 1.2818651,
               "lng" : 34.7298765
            },
            "location_type" : "APPROXIMATE",
            "viewport" : {
               "northeast" : {
                  "lat" : 1.418265,
                  "lng" : 34.829762
               },
               "southwest" : {
                  "lat" : 1.101049,
                  "lng" : 34.543932
               }
            }
         },
         "partial_match" : true,
         "place_id" : "ChIJ138Kg6sSghcR8MPBW9eu_Zg",
         "types" : [ "administrative_area_level_2", "political" ]
      }
   ],
   "status" : "OK"
}
