{
   "results" : [
      {
         "address_components" : [
            {
               "long_name" : "Ibanda",
               "short_name" : "Ibanda",
               "types" : [ "locality", "political" ]
            },
            {
               "long_name" : "Ibanda",
               "short_name" : "Ibanda",
               "types" : [ "administrative_area_level_2", "political" ]
            },
            {
               "long_name" : "Western Region",
               "short_name" : "Western Region",
               "types" : [ "administrative_area_level_1", "political" ]
            },
            {
               "long_name" : "Uganda",
               "short_name" : "UG",
               "types" : [ "country", "political" ]
            }
         ],
         "formatted_address" : "Ibanda, Uganda",
         "geometry" : {
            "bounds" : {
               "northeast" : {
                  "lat" : -0.0857448,
                  "lng" : 30.51486959999999
               },
               "southwest" : {
                  "lat" : -0.1435945,
                  "lng" : 30.4829407
               }
            },
            "location" : {
               "lat" : -0.1167162,
               "lng" : 30.4991209
            },
            "location_type" : "APPROXIMATE",
            "viewport" : {
               "northeast" : {
                  "lat" : -0.0857448,
                  "lng" : 30.51486959999999
               },
               "southwest" : {
                  "lat" : -0.1435945,
                  "lng" : 30.4829407
               }
            }
         },
         "partial_match" : true,
         "place_id" : "ChIJ49hJ3sWi2BkR3crhbp4UHnA",
         "types" : [ "locality", "political" ]
      },
      {
         "address_components" : [
            {
               "long_name" : "Isingiro",
               "short_name" : "Isingiro",
               "types" : [ "administrative_area_level_2", "political" ]
            },
            {
               "long_name" : "Western Region",
               "short_name" : "Western Region",
               "types" : [ "administrative_area_level_1", "political" ]
            },
            {
               "long_name" : "Uganda",
               "short_name" : "UG",
               "types" : [ "country", "political" ]
            }
         ],
         "formatted_address" : "Isingiro, Uganda",
         "geometry" : {
            "bounds" : {
               "northeast" : {
                  "lat" : -0.6084898999999999,
                  "lng" : 31.268906
               },
               "southwest" : {
                  "lat" : -1.077428,
                  "lng" : 30.46138199999999
               }
            },
            "location" : {
               "lat" : -0.8435429999999999,
               "lng" : 30.8039474
            },
            "location_type" : "APPROXIMATE",
            "viewport" : {
               "northeast" : {
                  "lat" : -0.6084898999999999,
                  "lng" : 31.268906
               },
               "southwest" : {
                  "lat" : -1.077428,
                  "lng" : 30.46138199999999
               }
            }
         },
         "partial_match" : true,
         "place_id" : "ChIJN45xk9l12RkRN6gP5mu-2Bc",
         "types" : [ "administrative_area_level_2", "political" ]
      }
   ],
   "status" : "OK"
}
