{
   "results" : [
      {
         "address_components" : [
            {
               "long_name" : "Jarvis Island",
               "short_name" : "Jarvis Island",
               "types" : [ "establishment", "natural_feature" ]
            },
            {
               "long_name" : "United States Minor Outlying Islands",
               "short_name" : "UM",
               "types" : [ "country", "political" ]
            }
         ],
         "formatted_address" : "Jarvis Island, United States Minor Outlying Islands",
         "geometry" : {
            "bounds" : {
               "northeast" : {
                  "lat" : -0.3624568,
                  "lng" : -159.9849071
               },
               "southwest" : {
                  "lat" : -0.3824678,
                  "lng" : -160.0134562
               }
            },
            "location" : {
               "lat" : -0.3743503,
               "lng" : -159.9967206
            },
            "location_type" : "APPROXIMATE",
            "viewport" : {
               "northeast" : {
                  "lat" : -0.3624568,
                  "lng" : -159.9849071
               },
               "southwest" : {
                  "lat" : -0.3824678,
                  "lng" : -160.0134562
               }
            }
         },
         "partial_match" : true,
         "place_id" : "ChIJj3ePabZDqHARq-3pFzMkWLg",
         "types" : [ "establishment", "natural_feature" ]
      },
      {
         "address_components" : [
            {
               "long_name" : "Baker Island",
               "short_name" : "Baker Island",
               "types" : [ "establishment", "natural_feature" ]
            },
            {
               "long_name" : "United States Minor Outlying Islands",
               "short_name" : "UM",
               "types" : [ "country", "political" ]
            }
         ],
         "formatted_address" : "Baker Island, United States Minor Outlying Islands",
         "geometry" : {
            "bounds" : {
               "northeast" : {
                  "lat" : 0.2008295,
                  "lng" : -176.4701875
               },
               "southwest" : {
                  "lat" : 0.1899033,
                  "lng" : -176.4867685
               }
            },
            "location" : {
               "lat" : 0.1936266,
               "lng" : -176.476908
            },
            "location_type" : "APPROXIMATE",
            "viewport" : {
               "northeast" : {
                  "lat" : 0.2008295,
                  "lng" : -176.4701875
               },
               "southwest" : {
                  "lat" : 0.1899033,
                  "lng" : -176.4867685
               }
            }
         },
         "partial_match" : true,
         "place_id" : "ChIJE0jMzUJEp3oRZmvBfCXKoRw",
         "types" : [ "establishment", "natural_feature" ]
      }
   ],
   "status" : "OK"
}
